[{"country":"Afghanistan","city":"Kabul","latitude":34.28,"longitude":69.11},{"country":"Albania\t","city":"Tirane\t","latitude":41.18,"longitude":19.49},{"country":"Algeria\t","city":"Algiers\t","latitude":36.42,"longitude":3.08},{"country":"American ","city":"Samoa\tPago Pago\t","latitude":-14.16,"longitude":-170.43},{"country":"Andorra\t","city":"Andorra la Vella\t","latitude":42.31,"longitude":1.32},{"country":"Angola\t","city":"Luanda\t","latitude":-8.5,"longitude":13.15},{"country":"Antigua ","city":"and Barbuda\tWest Indies\t","latitude":17.2,"longitude":-61.48},{"country":"Argentina\t","city":"Buenos Aires\t","latitude":-36.3,"longitude":-60},{"country":"Armenia\t","city":"Yerevan\t","latitude":40.1,"longitude":44.31},{"country":"Aruba\t","city":"Oranjestad\t","latitude":12.32,"longitude":-70.02},{"country":"Australia\t","city":"Canberra\t","latitude":-35.15,"longitude":149.08},{"country":"Austria\t","city":"Vienna\t","latitude":48.12,"longitude":16.22},{"country":"Azerbaijan\t","city":"Baku\t","latitude":40.29,"longitude":49.56},{"country":"Bahamas\t","city":"Nassau\t","latitude":25.05,"longitude":-77.2},{"country":"Bahrain\t","city":"Manama\t","latitude":26.1,"longitude":50.3},{"country":"Bangladesh\t","city":"Dhaka\t","latitude":23.43,"longitude":90.26},{"country":"Barbados\t","city":"Bridgetown\t","latitude":13.05,"longitude":-59.3},{"country":"Belarus\t","city":"Minsk\t","latitude":53.52,"longitude":27.3},{"country":"Belgium\t","city":"Brussels\t","latitude":50.51,"longitude":4.21},{"country":"Belize\t","city":"Belmopan\t","latitude":17.18,"longitude":-88.3},{"country":"Benin\t","city":"Porto Novo (constitutional) / Cotonou (seat of government)\t","latitude":6.23,"longitude":2.42},{"country":"Bhutan\t","city":"Thimphu\t","latitude":27.31,"longitude":89.45},{"country":"Bolivia\t","city":"La Paz (administrative) / Sucre (legislative)\t","latitude":-16.2,"longitude":-68.1},{"country":"Bosnia ","city":"and Herzegovina\tSarajevo\t","latitude":43.52,"longitude":18.26},{"country":"Botswana\t","city":"Gaborone\t","latitude":-24.45,"longitude":25.57},{"country":"Brazil\t","city":"Brasilia\t","latitude":-15.47,"longitude":-47.55},{"country":"British ","city":"Virgin Islands\tRoad Town\t","latitude":18.27,"longitude":-64.37},{"country":"Brunei ","city":"Darussalam\tBandar Seri Begawan\t","latitude":4.52,"longitude":115},{"country":"Bulgaria\t","city":"Sofia\t","latitude":42.45,"longitude":23.2},{"country":"Burkina ","city":"Faso\tOuagadougou\t","latitude":12.15,"longitude":-1.3},{"country":"Burundi\t","city":"Bujumbura\t","latitude":-3.16,"longitude":29.18},{"country":"Cambodia\t","city":"Phnom Penh\t","latitude":11.33,"longitude":104.55},{"country":"Cameroon\t","city":"Yaounde\t","latitude":3.5,"longitude":11.35},{"country":"Canada\t","city":"Ottawa\t","latitude":45.27,"longitude":-75.42},{"country":"Cape ","city":"Verde\tPraia\t","latitude":15.02,"longitude":-23.34},{"country":"Cayman ","city":"Islands\tGeorge Town\t","latitude":19.2,"longitude":-81.24},{"country":"Central ","city":"African Republic\tBangui\t","latitude":4.23,"longitude":18.35},{"country":"Chad\t","city":"N'Djamena","latitude":12.1,"longitude":14.59},{"country":"Chile\t","city":"Santiago\t","latitude":-33.24,"longitude":-70.4},{"country":"China\t","city":"Beijing\t","latitude":39.55,"longitude":116.2},{"country":"Colombia\t","city":"Bogota\t","latitude":4.34,"longitude":-74},{"country":"Comros\t","city":"Moroni\t","latitude":-11.4,"longitude":43.16},{"country":"Congo\t","city":"Brazzaville\t","latitude":-4.09,"longitude":15.12},{"country":"Costa ","city":"Rica\tSan Jose\t","latitude":9.55,"longitude":-84.02},{"country":"Cote d'Ivoire","city":"Yamoussoukro","latitude":6.49,"longitude":-5.17},{"country":"Croatia\t","city":"Zagreb\t","latitude":45.5,"longitude":15.58},{"country":"Cuba\t","city":"Havana\t","latitude":23.08,"longitude":-82.22},{"country":"Cyprus\t","city":"Nicosia\t","latitude":35.1,"longitude":33.25},{"country":"Czech ","city":"Republic\tPrague\t","latitude":50.05,"longitude":14.22},{"country":"Democratic ","city":"Republic of the Congo\tKinshasa\t","latitude":-4.2,"longitude":15.15},{"country":"Denmark\t","city":"Copenhagen\t","latitude":55.41,"longitude":12.34},{"country":"Djibouti\t","city":"Djibouti\t","latitude":11.08,"longitude":42.2},{"country":"Dominica\t","city":"Roseau\t","latitude":15.2,"longitude":-61.24},{"country":"Dominica ","city":"Republic\tSanto Domingo\t","latitude":18.3,"longitude":-69.59},{"country":"East ","city":"Timor\tDili\t","latitude":-8.29,"longitude":125.34},{"country":"Ecuador\t","city":"Quito\t","latitude":-0.15,"longitude":-78.35},{"country":"Egypt\t","city":"Cairo\t","latitude":30.01,"longitude":31.14},{"country":"El ","city":"Salvador\tSan Salvador\t","latitude":13.4,"longitude":-89.1},{"country":"Equatorial ","city":"Guinea\tMalabo\t","latitude":3.45,"longitude":8.5},{"country":"Eritrea\t","city":"Asmara\t","latitude":15.19,"longitude":38.55},{"country":"Estonia\t","city":"Tallinn\t","latitude":59.22,"longitude":24.48},{"country":"Ethiopia\t","city":"Addis Ababa\t","latitude":9.02,"longitude":38.42},{"country":"Falkland ","city":"Islands (Malvinas)\tStanley\t","latitude":-51.4,"longitude":-59.51},{"country":"Faroe ","city":"Islands\tTorshavn\t","latitude":62.05,"longitude":-6.56},{"country":"Fiji\t","city":"Suva\t","latitude":-18.06,"longitude":178.3},{"country":"Finland\t","city":"Helsinki\t","latitude":60.15,"longitude":25.03},{"country":"France\t","city":"Paris\t","latitude":48.5,"longitude":2.2},{"country":"French ","city":"Guiana\tCayenne\t","latitude":5.05,"longitude":-52.18},{"country":"French ","city":"Polynesia\tPapeete\t","latitude":-17.32,"longitude":-149.34},{"country":"Gabon\t","city":"Libreville\t","latitude":0.25,"longitude":9.26},{"country":"Gambia\t","city":"Banjul\t","latitude":13.28,"longitude":-16.4},{"country":"Georgia\t","city":"T'bilisi\t","latitude":41.43,"longitude":44.5},{"country":"Germany\t","city":"Berlin\t","latitude":52.3,"longitude":13.25},{"country":"Ghana\t","city":"Accra\t","latitude":5.35,"longitude":-0.06},{"country":"Greece\t","city":"Athens\t","latitude":37.58,"longitude":23.46},{"country":"Greenland\t","city":"Nuuk\t","latitude":64.1,"longitude":-51.35},{"country":"Guadeloupe\t","city":"Basse-Terre\t","latitude":16,"longitude":-61.44},{"country":"Guatemala\t","city":"Guatemala\t","latitude":14.4,"longitude":-90.22},{"country":"Guernsey\t","city":"St. Peter Port\t","latitude":49.26,"longitude":-2.33},{"country":"Guinea\t","city":"Conakry\t","latitude":9.29,"longitude":-13.49},{"country":"Guinea-","city":"Bissau\tBissau\t","latitude":11.45,"longitude":-15.45},{"country":"Guyana\t","city":"Georgetown\t","latitude":6.5,"longitude":-58.12},{"country":"Haiti\t","city":"Port-au-Prince\t","latitude":18.4,"longitude":-72.2},{"country":"Heard ","city":"Island and McDonald Islands\t \t","latitude":-53,"longitude":74},{"country":"Honduras\t","city":"Tegucigalpa\t","latitude":14.05,"longitude":-87.14},{"country":"Hungary\t","city":"Budapest\t","latitude":47.29,"longitude":19.05},{"country":"Iceland\t","city":"Reykjavik\t","latitude":64.1,"longitude":-21.57},{"country":"India\t","city":"New Delhi\t","latitude":28.37,"longitude":77.13},{"country":"Indonesia\t","city":"Jakarta\t","latitude":-6.09,"longitude":106.49},{"country":"Iran ","city":"(Islamic Republic of)\tTehran\t","latitude":35.44,"longitude":51.3},{"country":"Iraq\t","city":"Baghdad\t","latitude":33.2,"longitude":44.3},{"country":"Ireland\t","city":"Dublin\t","latitude":53.21,"longitude":-6.15},{"country":"Israel\t","city":"Jerusalem\t","latitude":31.71,"longitude":-35.1},{"country":"Italy\t","city":"Rome\t","latitude":41.54,"longitude":12.29},{"country":"Jamaica\t","city":"Kingston\t","latitude":18,"longitude":-76.5},{"country":"Jordan\t","city":"Amman\t","latitude":31.57,"longitude":35.52},{"country":"Kazakhstan\t","city":"Astana\t","latitude":51.1,"longitude":71.3},{"country":"Kenya\t","city":"Nairobi\t","latitude":-1.17,"longitude":36.48},{"country":"Kiribati\t","city":"Tarawa\t","latitude":1.3,"longitude":173},{"country":"Kuwait\t","city":"Kuwait\t","latitude":29.3,"longitude":48},{"country":"Kyrgyzstan\t","city":"Bishkek\t","latitude":42.54,"longitude":74.46},{"country":"Lao ","city":"People's Democratic Republic\tVientiane\t","latitude":17.58,"longitude":102.36},{"country":"Latvia\t","city":"Riga\t","latitude":56.53,"longitude":24.08},{"country":"Lebanon\t","city":"Beirut\t","latitude":33.53,"longitude":35.31},{"country":"Lesotho\t","city":"Maseru\t","latitude":-29.18,"longitude":27.3},{"country":"Liberia\t","city":"Monrovia\t","latitude":6.18,"longitude":-10.47},{"country":"Libyan ","city":"Arab Jamahiriya\tTripoli\t","latitude":32.49,"longitude":13.07},{"country":"Liechtenstein\t","city":"Vaduz\t","latitude":47.08,"longitude":9.31},{"country":"Lithuania\t","city":"Vilnius\t","latitude":54.38,"longitude":25.19},{"country":"Luxembourg\t","city":"Luxembourg\t","latitude":49.37,"longitude":6.09},{"country":"Macao,","city":"China\tMacau\t","latitude":22.12,"longitude":113.33},{"country":"Madagascar\t","city":"Antananarivo\t","latitude":-18.55,"longitude":47.31},{"country":"Macedonia ","city":"(Former Yugoslav Republic)\tSkopje\t","latitude":42.01,"longitude":21.26},{"country":"Malawi\t","city":"Lilongwe\t","latitude":-14,"longitude":33.48},{"country":"Malaysia\t","city":"Kuala Lumpur\t","latitude":3.09,"longitude":101.41},{"country":"Maldives\t","city":"Male\t","latitude":4,"longitude":73.28},{"country":"Mali\t","city":"Bamako\t","latitude":12.34,"longitude":-7.55},{"country":"Malta\t","city":"Valletta\t","latitude":35.54,"longitude":14.31},{"country":"Martinique\t","city":"Fort-de-France\t","latitude":14.36,"longitude":-61.02},{"country":"Mauritania\t","city":"Nouakchott\t","latitude":-20.1,"longitude":57.3},{"country":"Mayotte\t","city":"Mamoudzou\t","latitude":-12.48,"longitude":45.14},{"country":"Mexico\t","city":"Mexico\t","latitude":19.2,"longitude":-99.1},{"country":"Micronesia ","city":"(Federated States of)\tPalikir\t","latitude":6.55,"longitude":158.09},{"country":"Moldova,","city":"Republic of\tChisinau\t","latitude":47.02,"longitude":28.5},{"country":"Mozambique\t","city":"Maputo\t","latitude":-25.58,"longitude":32.32},{"country":"Myanmar\t","city":"Yangon\t","latitude":16.45,"longitude":96.2},{"country":"Namibia\t","city":"Windhoek\t","latitude":-22.35,"longitude":17.04},{"country":"Nepal\t","city":"Kathmandu\t","latitude":27.45,"longitude":85.2},{"country":"Netherlands\t","city":"Amsterdam / The Hague (seat of Government)\t","latitude":52.23,"longitude":4.54},{"country":"Netherlands ","city":"Antilles\tWillemstad\t","latitude":12.05,"longitude":-69},{"country":"New ","city":"Caledonia\tNoumea\t","latitude":-22.17,"longitude":166.3},{"country":"New ","city":"Zealand\tWellington\t","latitude":-41.19,"longitude":174.46},{"country":"Nicaragua\t","city":"Managua\t","latitude":12.06,"longitude":-86.2},{"country":"Niger\t","city":"Niamey\t","latitude":13.27,"longitude":2.06},{"country":"Nigeria\t","city":"Abuja\t","latitude":9.05,"longitude":7.32},{"country":"Norfolk ","city":"Island\tKingston\t","latitude":-45.2,"longitude":168.43},{"country":"North ","city":"Korea\tPyongyang\t","latitude":39.09,"longitude":125.3},{"country":"Northern ","city":"Mariana Islands\tSaipan\t","latitude":15.12,"longitude":145.45},{"country":"Norway\t","city":"Oslo\t","latitude":59.55,"longitude":10.45},{"country":"Oman\t","city":"Masqat\t","latitude":23.37,"longitude":58.36},{"country":"Pakistan\t","city":"Islamabad\t","latitude":33.4,"longitude":73.1},{"country":"Palau\t","city":"Koror\t","latitude":7.2,"longitude":134.28},{"country":"Panama\t","city":"Panama\t","latitude":9,"longitude":-79.25},{"country":"Papua ","city":"New Guinea\tPort Moresby\t","latitude":-9.24,"longitude":147.08},{"country":"Paraguay\t","city":"Asuncion\t","latitude":-25.1,"longitude":-57.3},{"country":"Peru\t","city":"Lima\t","latitude":-12,"longitude":-77},{"country":"Philippines\t","city":"Manila\t","latitude":14.4,"longitude":121.03},{"country":"Poland\t","city":"Warsaw\t","latitude":52.13,"longitude":21},{"country":"Portugal\t","city":"Lisbon\t","latitude":38.42,"longitude":-9.1},{"country":"Puerto ","city":"Rico\tSan Juan\t","latitude":18.28,"longitude":-66.07},{"country":"Qatar\t","city":"Doha\t","latitude":25.15,"longitude":51.35},{"country":"Republic ","city":"of Korea\tSeoul\t","latitude":37.31,"longitude":126.58},{"country":"Romania\t","city":"Bucuresti\t","latitude":44.27,"longitude":26.1},{"country":"Russian ","city":"Federation\tMoskva\t","latitude":55.45,"longitude":37.35},{"country":"Rawanda\t","city":"Kigali\t","latitude":-1.59,"longitude":30.04},{"country":"Saint ","city":"Kitts and Nevis\tBasseterre\t","latitude":17.17,"longitude":-62.43},{"country":"Saint ","city":"Lucia\tCastries\t","latitude":14.02,"longitude":-60.58},{"country":"Saint ","city":"Pierre and Miquelon\tSaint-Pierre\t","latitude":46.46,"longitude":-56.12},{"country":"Saint ","city":"Vincent and the Greenadines\tKingstown\t","latitude":13.1,"longitude":-61.1},{"country":"Samoa\t","city":"Apia\t","latitude":-13.5,"longitude":-171.5},{"country":"San ","city":"Marino\tSan Marino\t","latitude":43.55,"longitude":12.3},{"country":"Sao ","city":"Tome and Principe\tSao Tome\t","latitude":0.1,"longitude":6.39},{"country":"Saudi ","city":"Arabia\tRiyadh\t","latitude":24.41,"longitude":46.42},{"country":"Senegal\t","city":"Dakar\t","latitude":14.34,"longitude":-17.29},{"country":"Sierra ","city":"Leone\tFreetown\t","latitude":8.3,"longitude":-13.17},{"country":"Slovakia\t","city":"Bratislava\t","latitude":48.1,"longitude":17.07},{"country":"Slovenia\t","city":"Ljubljana\t","latitude":46.04,"longitude":14.33},{"country":"Solomon ","city":"Islands\tHoniara\t","latitude":-9.27,"longitude":159.57},{"country":"Somalia\t","city":"Mogadishu\t","latitude":2.02,"longitude":45.25},{"country":"South ","city":"Africa\tPretoria (administrative) / Cape Town (legislative) / Bloemfontein (judicial)\t","latitude":-25.44,"longitude":28.12},{"country":"Spain\t","city":"Madrid\t","latitude":40.25,"longitude":-3.45},{"country":"Sudan\t","city":"Khartoum\t","latitude":15.31,"longitude":32.35},{"country":"Suriname\t","city":"Paramaribo\t","latitude":5.5,"longitude":-55.1},{"country":"Swaziland\t","city":"Mbabane (administrative)\t","latitude":-26.18,"longitude":31.06},{"country":"Sweden\t","city":"Stockholm\t","latitude":59.2,"longitude":18.03},{"country":"Switzerland\t","city":"Bern\t","latitude":46.57,"longitude":7.28},{"country":"Syrian ","city":"Arab Republic\tDamascus\t","latitude":33.3,"longitude":36.18},{"country":"Tajikistan\t","city":"Dushanbe\t","latitude":38.33,"longitude":68.48},{"country":"Thailand\t","city":"Bangkok\t","latitude":13.45,"longitude":100.35},{"country":"Togo\t","city":"Lome\t","latitude":6.09,"longitude":1.2},{"country":"Tonga\t","city":"Nuku'alofa\t","latitude":-21.1,"longitude":-174},{"country":"Tunisia\t","city":"Tunis\t","latitude":36.5,"longitude":10.11},{"country":"Turkey\t","city":"Ankara\t","latitude":39.57,"longitude":32.54},{"country":"Turkmenistan\t","city":"Ashgabat\t","latitude":38,"longitude":57.5},{"country":"Tuvalu\t","city":"Funafuti\t","latitude":-8.31,"longitude":179.13},{"country":"Uganda\t","city":"Kampala\t","latitude":0.2,"longitude":32.3},{"country":"Ukraine\t","city":"Kiev (Russia)\t","latitude":50.3,"longitude":30.28},{"country":"United ","city":"Arab Emirates\tAbu Dhabi\t","latitude":24.28,"longitude":54.22},{"country":"United ","city":"Kingdom of Great Britain and Northern Ireland\tLondon\t","latitude":51.36,"longitude":-0.05},{"country":"United ","city":"Republic of Tanzania\tDodoma\t","latitude":-6.08,"longitude":35.45},{"country":"United ","city":"States of America\tWashington DC\t","latitude":39.91,"longitude":-77.02},{"country":"United ","city":"States of Virgin Islands\tCharlotte Amalie\t","latitude":18.21,"longitude":-64.56},{"country":"Uruguay\t","city":"Montevideo\t","latitude":-34.5,"longitude":-56.11},{"country":"Uzbekistan\t","city":"Tashkent\t","latitude":41.2,"longitude":69.1},{"country":"Vanuatu\t","city":"Port-Vila\t","latitude":-17.45,"longitude":168.18},{"country":"Venezuela\t","city":"Caracas\t","latitude":10.3,"longitude":-66.55},{"country":"Viet ","city":"Nam\tHanoi\t","latitude":21.05,"longitude":105.55},{"country":"Yugoslavia\t","city":"Belgrade\t","latitude":44.5,"longitude":20.37},{"country":"Zambia\t","city":"Lusaka\t","latitude":-15.28,"longitude":28.16},{"country":"Zimbabwe\t","city":"Harare\t","latitude":-17.43,"longitude":31.02}]